{"type":"FeatureCollection", "features": [
{"type":"Feature","geometry":{"type":"Point","coordinates":[116.753,39.9014]},"properties":{"poiID":"BV10416639","X":116.753,"Y":39.9014,"name":"潞城","spell":"lu cheng","r":110012,"t":0,"su":1}},
{"type":"Feature","geometry":{"type":"Point","coordinates":[116.736,39.9029]},"properties":{"poiID":"BV10416641","X":116.736,"Y":39.9029,"name":"东夏园","spell":"dong xia yuan","r":110012,"t":0,"su":1}},
{"type":"Feature","geometry":{"type":"Point","coordinates":[116.72,39.9024]},"properties":{"poiID":"BV10416644","X":116.72,"Y":39.9024,"name":"郝家府","spell":"hao jia fu","r":110012,"t":0,"su":1}},
{"type":"Feature","geometry":{"type":"Point","coordinates":[116.704,39.902]},"properties":{"poiID":"BV10416651","X":116.704,"Y":39.902,"name":"北运河东","spell":"bei yun he dong","r":110012,"t":0,"su":3}},
{"type":"Feature","geometry":{"type":"Point","coordinates":[116.69,39.9028]},"properties":{"poiID":"BV10416648","X":116.69,"Y":39.9028,"name":"北运河西","spell":"bei yun he xi","r":110012,"t":0,"su":1}},
{"type":"Feature","geometry":{"type":"Point","coordinates":[116.677,39.91]},"properties":{"poiID":"BV10416649","X":116.677,"Y":39.91,"name":"通运门","spell":"tong yun men","r":110012,"t":0,"su":3}},
{"type":"Feature","geometry":{"type":"Point","coordinates":[116.66,39.9202]},"properties":{"poiID":"BV10416643","X":116.66,"Y":39.9202,"name":"通州北关","spell":"tong zhou bei guan","r":110012,"t":0,"su":1}},
{"type":"Feature","geometry":{"type":"Point","coordinates":[116.639,39.9269]},"properties":{"poiID":"BV10416645","X":116.639,"Y":39.9269,"name":"物资学院路","spell":"wu zi xue yuan lu","r":110012,"t":0,"su":1}},
{"type":"Feature","geometry":{"type":"Point","coordinates":[116.615,39.9244]},"properties":{"poiID":"BV10006882","X":116.615,"Y":39.9244,"name":"草房","spell":"cao fang","r":110012,"t":0,"su":1}},
{"type":"Feature","geometry":{"type":"Point","coordinates":[116.6,39.9257]},"properties":{"poiID":"BV10006429","X":116.6,"Y":39.9257,"name":"常营","spell":"chang ying","r":110012,"t":0,"su":1}},
{"type":"Feature","geometry":{"type":"Point","coordinates":[116.578,39.9242]},"properties":{"poiID":"BV10013505","X":116.578,"Y":39.9242,"name":"黄渠","spell":"huang qu","r":110012,"t":0,"su":1}},
{"type":"Feature","geometry":{"type":"Point","coordinates":[116.563,39.924]},"properties":{"poiID":"BV10013506","X":116.563,"Y":39.924,"name":"褡裢坡","spell":"da lian po","r":110012,"t":0,"su":1}},
{"type":"Feature","geometry":{"type":"Point","coordinates":[116.518,39.9232]},"properties":{"poiID":"BV10013507","X":116.518,"Y":39.9232,"name":"青年路","spell":"qing nian lu","r":110012,"t":0,"su":1}},
{"type":"Feature","geometry":{"type":"Point","coordinates":[116.502,39.9231]},"properties":{"poiID":"BV10000481","X":116.502,"Y":39.9231,"name":"十里堡","spell":"shi li bao","r":110012,"t":0,"su":1}},
{"type":"Feature","geometry":{"type":"Point","coordinates":[116.478,39.9229]},"properties":{"poiID":"BV10008284","X":116.478,"Y":39.9229,"name":"金台路","spell":"jin tai lu","r":0,"t":1,"su":1}},
{"type":"Feature","geometry":{"type":"Point","coordinates":[116.462,39.9232]},"properties":{"poiID":"BV10013489","X":116.462,"Y":39.9232,"name":"呼家楼","spell":"hu jia lou","r":0,"t":1,"su":1}},
{"type":"Feature","geometry":{"type":"Point","coordinates":[116.452,39.9231]},"properties":{"poiID":"BV10000548","X":116.452,"Y":39.9231,"name":"东大桥","spell":"dong da qiao","r":110012,"t":0,"su":1}},
{"type":"Feature","geometry":{"type":"Point","coordinates":[116.433,39.9244]},"properties":{"poiID":"BV10004298","X":116.433,"Y":39.9244,"name":"朝阳门","spell":"zhao yang men","r":0,"t":1,"su":1}},
{"type":"Feature","geometry":{"type":"Point","coordinates":[116.417,39.9244]},"properties":{"poiID":"BV10013442","X":116.417,"Y":39.9244,"name":"东四","spell":"dong si","r":0,"t":1,"su":1}},
{"type":"Feature","geometry":{"type":"Point","coordinates":[116.403,39.9331]},"properties":{"poiID":"BV10013392","X":116.403,"Y":39.9331,"name":"南锣鼓巷","spell":"nan luo gu xiang","r":0,"t":1,"su":1}},
{"type":"Feature","geometry":{"type":"Point","coordinates":[116.387,39.9333]},"properties":{"poiID":"BV10013508","X":116.387,"Y":39.9333,"name":"北海北","spell":"bei hai bei","r":110012,"t":0,"su":1}},
{"type":"Feature","geometry":{"type":"Point","coordinates":[116.372,39.9327]},"properties":{"poiID":"BV10013413","X":116.372,"Y":39.9327,"name":"平安里","spell":"ping an li","r":0,"t":1,"su":1}},
{"type":"Feature","geometry":{"type":"Point","coordinates":[116.355,39.9324]},"properties":{"poiID":"BV10013437","X":116.355,"Y":39.9324,"name":"车公庄","spell":"che gong zhuang","r":0,"t":1,"su":1}},
{"type":"Feature","geometry":{"type":"Point","coordinates":[116.344,39.9325]},"properties":{"poiID":"BV10000051","X":116.344,"Y":39.9325,"name":"车公庄西","spell":"che gong zhuang xi","r":110012,"t":0,"su":1}},
{"type":"Feature","geometry":{"type":"Point","coordinates":[116.325,39.933]},"properties":{"poiID":"BV10000061","X":116.325,"Y":39.933,"name":"白石桥南","spell":"bai shi qiao nan","r":0,"t":1,"su":1}},
{"type":"Feature","geometry":{"type":"Point","coordinates":[116.31,39.9324]},"properties":{"poiID":"BV10013509","X":116.31,"Y":39.9324,"name":"花园桥","spell":"hua yuan qiao","r":110012,"t":0,"su":1}},
{"type":"Feature","geometry":{"type":"Point","coordinates":[116.294,39.933]},"properties":{"poiID":"BV10013496","X":116.294,"Y":39.933,"name":"慈寿寺","spell":"ci shou si","r":0,"t":1,"su":1}},
{"type":"Feature","geometry":{"type":"Point","coordinates":[116.277,39.9326]},"properties":{"poiID":"BV10013510","X":116.277,"Y":39.9326,"name":"海淀五路居","spell":"hai dian wu lu ju","r":110012,"t":0,"su":1}}
]}